<?xml version="1.0" encoding="utf-8" ?>
<regions>
  <region name="Автономная Республика Крым">
    <city lat="44.4197222" lon="34.0430556" name="Алупка" />
    <city lat="44.6637211" lon="34.405013" name="Алушта" />
    <city lat="46.1072222" lon="33.6933333" name="Армянск" />
    <city lat="44.7527778" lon="33.8608333" name="Бахчисарай" />
    <city lat="45.0544444" lon="34.6022222" name="Белогорск" />
    <city lat="45.7086111" lon="34.3933333" name="Джанкой" />
    <city lat="45.2036111" lon="33.3613889" name="Евпатория" />
    <city lat="45.33786" lon="36.458401" name="Керчь" />
    <city lat="45.962849" lon="33.787121" name="Красноперекопск" />
    <city lat="45.1336111" lon="33.5772222" name="Саки" />
    <city lat="44.60000001" lon="33.53333334" name="Севастополь" />
    <city lat="44.9480556" lon="34.1041667" name="Симферополь" />
    <city lat="45.0291667" lon="35.0886111" name="Старый Крым" />
    <city lat="44.858799" lon="34.974979" name="Судак" />
    <city lat="45.0488889" lon="35.3791667" name="Феодосия" />
    <city lat="45.4281023" lon="35.8165187" name="Щёлкино" />
    <city lat="44.4994444" lon="34.1552778" name="Ялта" />
  </region>
  <region name="Винницкая область">
    <city lat="49.630283" lon="27.001648" name="Бар" />
    <city lat="48.368954" lon="29.5331654" name="Бершадь" />
    <city lat="49.2333333" lon="28.4833333" name="Винница" />
    <city lat="48.8094444" lon="29.3905556" name="Гайсин" />
    <city lat="49.038349" lon="28.10556" name="Жмеринка" />
    <city lat="49.711769" lon="28.842859" name="Казатин" />
    <city lat="49.4472222" lon="28.5230556" name="Калиновка" />
    <city lat="48.676151" lon="29.262541" name="Ладыжин" />
    <city lat="48.45" lon="27.8" name="Могилёв-Подольский" />
    <city lat="48.9726621" lon="28.835666" name="Немиров" />
    <city lat="49.4833333" lon="29.2666667" name="Погребище" />
    <city lat="48.68" lon="28.87" name="Тульчин" />
    <city lat="49.563469" lon="27.959379" name="Хмельник" />
    <city lat="48.73761" lon="28.08688" name="Шаргород" />
    <city lat="49.9572775" lon="26.2290711" name="Ямполь" />
  </region>
  <region name="Волынская область">
    <city lat="50.3505636" lon="25.1007738" name="Берестечко" />
    <city lat="50.853578" lon="24.311783" name="Владимир-Волынский" />
    <city lat="50.500622" lon="24.767559" name="Горохов" />
    <city lat="51.6241667" lon="24.9605556" name="Камень-Каширский" />
    <city lat="50.833621" lon="25.460706" name="Киверцы" />
    <city lat="51.212898" lon="24.71343" name="Ковель" />
    <city lat="50.75" lon="25.3358333" name="Луцк" />
    <city lat="51.2230556" lon="24.0377778" name="Любомль" />
    <city lat="50.7333333" lon="24.1666667" name="Нововолынск" />
    <city lat="50.915901" lon="25.268551" name="Рожище" />
    <city lat="50.86" lon="24.15" name="Устилуг" />
  </region>
  <region name="Днепропетровская область">
    <city lat="47.65815" lon="33.697819" name="Апостолово" />
    <city lat="48.6561111" lon="34.3283333" name="Верхнеднепровск" />
    <city lat="48.4833333" lon="34.0166667" name="Вольногорск" />
    <city lat="48.5166667" lon="34.6166667" name="Днепродзержинск" />
    <city lat="48.45" lon="34.9833333" name="Днепропетровск" />
    <city lat="48.35" lon="33.5" name="Жёлтые Воды" />
    <city lat="47.899726" lon="33.379534" name="Кривой Рог" />
    <city lat="47.6397222" lon="34.6363889" name="Марганец" />
    <city lat="47.5666667" lon="34.4" name="Никополь" />
    <city lat="48.6333333" lon="35.2166667" name="Новомосковск" />
    <city lat="44.9643961" lon="35.3569007" name="Орджоникидзе" />
    <city lat="48.533939" lon="35.869282" name="Павлоград" />
    <city lat="49.016251" lon="35.371681" name="Перещепино" />
    <city lat="48.3463889" lon="36.4044444" name="Першотравенск" />
    <city lat="49.5355598" lon="25.5276081" name="Подгородное" />
    <city lat="48.4113889" lon="33.7105556" name="Пятихатки" />
    <city lat="48.3177778" lon="35.5119444" name="Синельниково" />
    <city lat="48.5402778" lon="29.9677778" name="Терновка" />
  </region>
  <region name="Донецкая область">
    <city lat="48.1333333" lon="37.7333333" name="Авдеевка" />
    <city lat="48.599072" lon="37.999241" name="Артёмовск" />
    <city lat="47.596119" lon="37.490429" name="Волноваха" />
    <city lat="48.346432" lon="38.059513" name="Горловка" />
    <city lat="48.4" lon="37.8333333" name="Дзержинск" />
    <city lat="48.3333333" lon="38.4" name="Дебальцево" />
    <city lat="48.32357" lon="37.291854" name="Димитров" />
    <city lat="48.4691324" lon="37.0871223" name="Доброполье" />
    <city lat="47.770821" lon="37.684361" name="Докучаевск" />
    <city lat="48.0027778" lon="37.8052778" name="Донецк" />
    <city lat="48.6166667" lon="37.5333333" name="Дружковка" />
    <city lat="48.2166667" lon="38.2" name="Енакиево" />
    <city lat="48.1462985" lon="38.2540176" name="Ждановка" />
    <city lat="48.0166667" lon="38.2666667" name="Зугрэс" />
    <city lat="48.15" lon="38.3666667" name="Кировское" />
    <city lat="48.736462" lon="37.57164" name="Краматорск" />
    <city lat="48.2827778" lon="37.1827778" name="Красноармейск" />
    <city lat="48.984211" lon="37.810329" name="Красный Лиман" />
    <city lat="48.51545" lon="37.703629" name="Константиновка" />
    <city lat="47.1166667" lon="37.55" name="Мариуполь" />
    <city lat="48.076179" lon="38.068427" name="Макеевка" />
    <city lat="48.2045408" lon="37.336821" name="Новогродовка" />
    <city lat="48.144671" lon="37.297897" name="Селидово" />
    <city lat="48.846851" lon="37.57954" name="Славянск" />
    <city lat="48.0282789" lon="38.7656122" name="Снежное" />
    <city lat="48.6833333" lon="38.1" name="Соледар" />
    <city lat="48.0166667" lon="38.6333333" name="Торез" />
    <city lat="47.7833333" lon="37.25" name="Угледар" />
    <city lat="48.037411" lon="38.160301" name="Харцызск" />
    <city lat="48.0333333" lon="38.4833333" name="Шахтёрск" />
    <city lat="48.1221425" lon="37.8765944" name="Ясиноватая" />
  </region>
  <region name="Житомирская область">
    <city lat="50.0166667" lon="29.0166667" name="Андрушёвка" />
    <city lat="50.30204" lon="27.67634" name="Барановка" />
    <city lat="49.903381" lon="28.599251" name="Бердичев" />
    <city lat="50.259749" lon="28.676248" name="Житомир" />
    <city lat="50.95" lon="28.6333333" name="Коростень" />
    <city lat="50.316639" lon="29.06653" name="Коростышев" />
    <city lat="50.77121" lon="29.25297" name="Малин" />
    <city lat="50.59256" lon="27.62348" name="Новоград-Волынский" />
    <city lat="51.327251" lon="28.818979" name="Овруч" />
    <city lat="50.4947222" lon="29.2333333" name="Радомышль" />
  </region>
  <region name="Закарпатская область">
    <city lat="48.2" lon="22.6333333" name="Берегово" />
    <city lat="48.138142" lon="23.041519" name="Виноградов" />
    <city lat="48.310911" lon="23.037711" name="Иршава" />
    <city lat="48.442411" lon="22.723352" name="Мукачево" />
    <city lat="48.7341667" lon="22.4741667" name="Перечин" />
    <city lat="48.060829" lon="24.205059" name="Рахов" />
    <city lat="48.5472222" lon="22.9861111" name="Свалява" />
    <city lat="48.0113889" lon="23.5722222" name="Тячев" />
    <city lat="48.6166667" lon="22.3" name="Ужгород" />
    <city lat="48.1813889" lon="23.2977778" name="Хуст" />
    <city lat="48.4333333" lon="22.2" name="Чоп" />
  </region>
  <region name="Запорожская область">
    <city lat="46.748581" lon="36.809502" name="Бердянск" />
    <city lat="47.433708" lon="35.27816" name="Васильевка" />
    <city lat="47.9419444" lon="35.4280556" name="Вольнянск" />
    <city lat="47.658562" lon="36.252918" name="Гуляйполе" />
    <city lat="47.3840983" lon="34.98121" name="Днепрорудное" />
    <city lat="47.853748" lon="35.157139" name="Запорожье" />
    <city lat="47.488911" lon="34.400761" name="Каменка-Днепровская" />
    <city lat="46.847839" lon="35.364979" name="Мелитополь" />
    <city lat="47.206982" lon="35.59618" name="Молочанск" />
    <city lat="47.5666667" lon="35.7833333" name="Орехов" />
    <city lat="47.47728" lon="36.25626" name="Пологи" />
    <city lat="46.7333333" lon="36.35" name="Приморск" />
    <city lat="47.25" lon="35.7" name="Токмак" />
    <city lat="47.4979877" lon="34.6565334" name="Энергодар" />
  </region>
  <region name="Ивано-Франковская область">
    <city lat="49.070011" lon="23.864719" name="Болехов" />
    <city lat="49.263802" lon="24.634211" name="Бурштын" />
    <city lat="49.1247222" lon="24.7286111" name="Галич" />
    <city lat="48.6675" lon="25.5002778" name="Городенка" />
    <city lat="51.79" lon="33.76" name="Долина" />
    <city lat="48.9166667" lon="24.7166667" name="Ивано-Франковск" />
    <city lat="49.050465" lon="24.374117" name="Калуш" />
    <city lat="48.53146" lon="25.039709" name="Коломыя" />
    <city lat="48.315" lon="25.0952778" name="Косов" />
    <city lat="48.6333333" lon="24.5833333" name="Надворная" />
    <city lat="49.411449" lon="24.62051" name="Рогатин" />
    <city lat="48.45" lon="25.5666667" name="Снятын" />
    <city lat="48.9008333" lon="24.8491667" name="Тысменица" />
    <city lat="48.8666667" lon="25.0" name="Тлумач" />
    <city lat="48.449523" lon="24.557508" name="Яремче" />
  </region>
  <region name="Киевская область">
    <city lat="49.7988889" lon="30.1152778" name="Белая Церковь" />
    <city lat="50.3197222" lon="31.47" name="Березань" />
    <city lat="49.541031" lon="30.88073" name="Богуслав" />
    <city lat="50.350491" lon="30.960739" name="Борисполь" />
    <city lat="49.323518" lon="30.700165" name="Боярка" />
    <city lat="50.5166667" lon="30.8166667" name="Бровары" />
    <city lat="50.5569165" lon="30.2230733" name="Буча" />
    <city lat="50.178959" lon="30.32715" name="Васильков" />
    <city lat="50.4377778" lon="33.3822222" name="Вишнёвое" />
    <city lat="50.5833333" lon="30.5" name="Вышгород" />
    <city lat="50.5166667" lon="30.25" name="Ирпень" />
    <city lat="49.85722" lon="30.82032" name="Кагарлык" />
    <city lat="50.584981" lon="30.235748" name="Киев" />
    <city lat="49.661022" lon="30.98458" name="Мироновка" />
    <city lat="50.105728" lon="30.630699" name="Обухов" />
    <city lat="50.070141" lon="31.45775" name="Переяслав-Хмельницкий" />
    <city lat="51.4977778" lon="24.1180556" name="Припять" />
    <city lat="49.972801" lon="31.04777" name="Ржищев" />
    <city lat="49.73719" lon="29.66901" name="Сквира" />
    <city lat="51.523777" lon="30.768559" name="Славутич" />
    <city lat="49.56065" lon="30.510309" name="Тараща" />
    <city lat="49.370575" lon="29.680221" name="Тетиев" />
    <city lat="49.820228" lon="30.438929" name="Узин" />
    <city lat="50.1530861" lon="30.7434917" name="Украинка" />
    <city lat="50.0833333" lon="29.9166667" name="Фастов" />
    <city lat="51.2666667" lon="30.2166667" name="Чернобыль" />
    <city lat="50.244949" lon="31.796261" name="Яготин" />
  </region>
  <region name="Кировоградская область">
    <city lat="48.6666667" lon="33.1166667" name="Александрия" />
    <city lat="48.050861" lon="32.16589" name="Бобринец" />
    <city lat="48.3333333" lon="29.8666667" name="Гайворон" />
    <city lat="48.1108333" lon="32.7647222" name="Долинская" />
    <city lat="48.7166667" lon="32.6666667" name="Знаменка" />
    <city lat="48.508389" lon="32.264801" name="Кировоград" />
    <city lat="48.65" lon="31.6333333" name="Малая Виска" />
    <city lat="48.7833333" lon="31.65" name="Новомиргород" />
    <city lat="48.3155556" lon="31.5269444" name="Новоукраинка" />
    <city lat="49.0502778" lon="33.2419444" name="Светловодск" />
  </region>
  <region name="Луганская область">
    <city lat="48.5861652" lon="39.1949396" name="Александровск" />
    <city lat="48.5166667" lon="38.5833333" name="Алмазная" />
    <city lat="48.4666667" lon="38.8" name="Алчевск" />
    <city lat="48.1166667" lon="39.0833333" name="Антрацит" />
    <city lat="48.5133333" lon="38.6430556" name="Брянка" />
    <city lat="48.174579" lon="38.837224" name="Вахрушево" />
    <city lat="49.1805556" lon="23.7341667" name="Горное" />
    <city lat="48.5833333" lon="38.9333333" name="Зимогорье" />
    <city lat="48.6928568" lon="38.5146349" name="Золотое" />
    <city lat="48.4131636" lon="38.6204799" name="Зоринск" />
    <city lat="48.29607" lon="39.745239" name="Краснодон" />
    <city lat="48.134041" lon="38.931419" name="Красный Луч" />
    <city lat="48.896895" lon="38.444143" name="Лисичанск" />
    <city lat="48.573269" lon="39.355659" name="Луганск" />
    <city lat="48.4019444" lon="39.2102778" name="Лутугино" />
    <city lat="48.07" lon="38.9" name="Миусинск" />
    <city lat="48.3444444" lon="39.6583333" name="Молодогвардейск" />
    <city lat="48.9666667" lon="38.35" name="Новодружеск" />
    <city lat="49.544731" lon="39.103889" name="Новопсков" />
    <city lat="48.6333" lon="38.5167" name="Первомайск" />
    <city lat="48.4388889" lon="38.8194444" name="Перевальск" />
    <city lat="48.293331" lon="38.888614" name="Петровское" />
    <city lat="48.6333333" lon="38.38" name="Попасная" />
    <city lat="49.016706" lon="38.302668" name="Приволье" />
    <city lat="48.0833333" lon="39.3666667" name="Ровеньки" />
    <city lat="49.0166667" lon="38.3666667" name="Рубежное" />
    <city lat="49.41011" lon="38.15258" name="Сватово" />
    <city lat="48.084549" lon="39.65163" name="Свердловск" />
    <city lat="48.950191" lon="38.497631" name="Северодонецк" />
    <city lat="49.2666667" lon="38.9166667" name="Старобельск" />
    <city lat="48.5666667" lon="38.65" name="Стаханов" />
    <city lat="48.3523068" lon="39.7239205" name="Суходольск" />
    <city lat="48.737247" lon="39.2311974" name="Счастье" />
    <city lat="48.600487" lon="38.5920825" name="Теплогорск" />
    <city lat="48.095566" lon="39.759607" name="Червонопартизанск" />
  </region>
  <region name="Львовская область">
    <city lat="50.380501" lon="24.01269" name="Белз" />
    <city lat="49.6331904" lon="24.2907476" name="Бобрка" />
    <city lat="49.28476" lon="23.42137" name="Борислав" />
    <city lat="50.0833333" lon="25.15" name="Броды" />
    <city lat="49.9666667" lon="24.6333333" name="Буск" />
    <city lat="50.24" lon="24.1394444" name="Великие Мосты" />
    <city lat="49.8233333" lon="24.5166667" name="Глиняны" />
    <city lat="49.78222" lon="23.64361" name="Городок" />
    <city lat="49.5666667" lon="22.7833333" name="Добромиль" />
    <city lat="49.34853" lon="23.51647" name="Дрогобыч" />
    <city lat="49.8833333" lon="24.0833333" name="Дубляны" />
    <city lat="49.3813889" lon="24.1408333" name="Жидачов" />
    <city lat="50.0666667" lon="23.9666667" name="Жолква" />
    <city lat="49.8083333" lon="24.9011111" name="Золочев" />
    <city lat="50.1" lon="24.35" name="Каменка-Бугская" />
    <city lat="49.85" lon="24.0166667" name="Львов" />
    <city lat="49.7941667" lon="23.1525" name="Мостиска" />
    <city lat="49.67" lon="24.5594444" name="Перемышляны" />
    <city lat="49.7138889" lon="23.9108333" name="Пустомыты" />
    <city lat="50.230431" lon="23.628309" name="Рава-Русская" />
    <city lat="50.2827778" lon="24.6375" name="Радехов" />
    <city lat="49.6530556" lon="23.4880556" name="Рудки" />
    <city lat="49.5166667" lon="23.2027778" name="Самбор" />
    <city lat="49.036049" lon="23.51232" name="Сколе" />
    <city lat="50.4833333" lon="24.2833333" name="Сокаль" />
    <city lat="49.4430556" lon="23.0033333" name="Старый Самбор" />
    <city lat="49.256171" lon="23.850306" name="Стрый" />
    <city lat="49.2805556" lon="23.505" name="Трускавец" />
    <city lat="50.3666667" lon="23.7444444" name="Угнев" />
    <city lat="49.5333333" lon="22.85" name="Хыров" />
    <city lat="50.3833333" lon="24.2333333" name="Червоноград" />
    <city lat="49.942501" lon="23.390989" name="Яворов" />
  </region>
  <region name="Николаевская область">
    <city lat="47.404331" lon="32.445301" name="Баштанка" />
    <city lat="47.587711" lon="31.336" name="Вознесенск" />
    <city lat="46.9666667" lon="32.0" name="Николаев" />
    <city lat="47.3166667" lon="31.7833333" name="Новая Одесса" />
    <city lat="47.6833333" lon="32.5" name="Новый Буг" />
    <city lat="46.6166667" lon="31.55" name="Очаков" />
    <city lat="48.05" lon="30.85" name="Первомайск" />
    <city lat="47.0666667" lon="32.8166667" name="Снигирёвка" />
    <city lat="47.8166667" lon="31.1833333" name="Южноукраинск" />
  </region>
  <region name="Одесская область">
    <city lat="47.7173" lon="29.975639" name="Ананьев" />
    <city lat="45.99739" lon="29.431288" name="Арциз" />
    <city lat="47.9333333" lon="29.6166667" name="Балта" />
    <city lat="46.1833333" lon="30.3333333" name="Белгород-Днестровский" />
    <city lat="45.682701" lon="28.61935" name="Болград" />
    <city lat="45.3516667" lon="28.8363889" name="Измаил" />
    <city lat="46.3020534" lon="30.6517391" name="Ильичёвск" />
    <city lat="45.45578" lon="29.273291" name="Килия" />
    <city lat="48.093941" lon="29.13368" name="Кодыма" />
    <city lat="47.75" lon="29.5333333" name="Котовск" />
    <city lat="46.4666667" lon="30.7333333" name="Одесса" />
    <city lat="45.841418" lon="29.62284" name="Татарбунары" />
    <city lat="46.5" lon="30.3333333" name="Теплодар" />
    <city lat="47.8173262" lon="33.5737487" name="Южное" />
  </region>
  <region name="Полтавская область">
    <city lat="50.3666667" lon="34.0" name="Гадяч" />
    <city lat="49.3833333" lon="33.2833333" name="Глобино" />
    <city lat="50.116852" lon="32.44059" name="Гребёнка" />
    <city lat="50.20955" lon="34.362345" name="Зеньков" />
    <city lat="49.45" lon="35.1333333" name="Карловка" />
    <city lat="49.073521" lon="33.4231" name="Кременчуг" />
    <city lat="49.145439" lon="34.213638" name="Кобеляки" />
    <city lat="49.013756" lon="33.643381" name="Комсомольск" />
    <city lat="50.36319" lon="33.253288" name="Лохвица" />
    <city lat="50.0166667" lon="33.0" name="Лубны" />
    <city lat="49.963799" lon="33.61869" name="Миргород" />
    <city lat="50.23975" lon="32.514309" name="Пирятин" />
    <city lat="49.59269" lon="34.551159" name="Полтава" />
    <city lat="49.790279" lon="33.207809" name="Хорол" />
    <city lat="50.4" lon="33.4" name="Червонозаводское" />
  </region>
  <region name="Ровенская область">
    <city lat="51.0" lon="26.75" name="Березне" />
    <city lat="50.38738" lon="25.754559" name="Дубно" />
    <city lat="51.571209" lon="26.56805" name="Дубровица" />
    <city lat="50.5166667" lon="26.25" name="Здолбунов" />
    <city lat="50.619129" lon="27.161869" name="Корец" />
    <city lat="50.8833333" lon="26.45" name="Костополь" />
    <city lat="51.3436553" lon="25.8490867" name="Кузнецовск" />
    <city lat="50.3333333" lon="26.5166667" name="Острог" />
    <city lat="50.125777" lon="25.264195" name="Радивилов" />
    <city lat="50.6166667" lon="26.25" name="Ровно" />
    <city lat="51.3372222" lon="26.6058333" name="Сарны" />
  </region>
  <region name="Сумская область">
    <city lat="50.29855" lon="34.892052" name="Ахтырка" />
    <city lat="51.149402" lon="34.3175225" name="Белополье" />
    <city lat="51.1978" lon="33.847351" name="Бурынь" />
    <city lat="51.6786111" lon="33.9113889" name="Глухов" />
    <city lat="51.550121" lon="33.38279" name="Кролевец" />
    <city lat="51.237469" lon="33.21217" name="Конотоп" />
    <city lat="48.96" lon="31.52" name="Лебедин" />
    <city lat="51.337589" lon="33.87888" name="Путивль" />
    <city lat="50.743919" lon="33.475712" name="Ромны" />
    <city lat="52.1833333" lon="34.0333333" name="Середина-Буда" />
    <city lat="50.910561" lon="34.80566" name="Сумы" />
    <city lat="50.9599282" lon="25.55378" name="Тростянец" />
    <city lat="51.86282" lon="33.487831" name="Шостка" />
  </region>
  <region name="Тернопольская область">
    <city lat="49.444191" lon="24.94486" name="Бережаны" />
    <city lat="48.803181" lon="26.041809" name="Борщёв" />
    <city lat="49.05772" lon="25.401979" name="Бучач" />
    <city lat="48.65" lon="25.7333333" name="Залещики" />
    <city lat="49.6666667" lon="25.7777778" name="Збараж" />
    <city lat="49.660696" lon="25.1434667" name="Зборов" />
    <city lat="50.099129" lon="25.7328" name="Кременец" />
    <city lat="49.8659402" lon="26.0841931" name="Лановцы" />
    <city lat="49.0888889" lon="25.1694444" name="Монастыриска" />
    <city lat="49.5246859" lon="26.137326" name="Подволочиск" />
    <city lat="49.2694444" lon="25.1361111" name="Подгайцы" />
    <city lat="50.0" lon="25.5083333" name="Почаев" />
    <city lat="49.424214" lon="25.976246" name="Скалат" />
    <city lat="49.551361" lon="25.603979" name="Тернополь" />
    <city lat="49.29348" lon="25.699551" name="Теребовля" />
    <city lat="49.0166667" lon="25.8" name="Чортков" />
    <city lat="50.122577" lon="26.1149716" name="Шумск" />
  </region>
  <region name="Харьковская область">
    <city lat="49.4658333" lon="36.8677778" name="Балаклея" />
    <city lat="48.9" lon="37.0166667" name="Барвенково" />
    <city lat="50.1654302" lon="35.5267251" name="Богодухов" />
    <city lat="49.843601" lon="35.61388" name="Валки" />
    <city lat="50.0455556" lon="37.3905556" name="Великий Бурлук" />
    <city lat="50.278519" lon="36.945171" name="Волчанск" />
    <city lat="50.110668" lon="36.114361" name="Дергачи" />
    <city lat="49.701939" lon="36.355171" name="Змиев" />
    <city lat="49.2127778" lon="37.2569444" name="Изюм" />
    <city lat="49.3666667" lon="35.45" name="Красноград" />
    <city lat="49.721901" lon="37.624329" name="Купянск" />
    <city lat="48.891684" lon="36.325786" name="Лозовая" />
    <city lat="49.95" lon="35.9166667" name="Люботин" />
    <city lat="49.8166667" lon="36.05" name="Мерефа" />
    <city lat="49.3833333" lon="36.2166667" name="Первомайский" />
    <city lat="49.98967" lon="36.208309" name="Харьков" />
    <city lat="49.8355556" lon="36.6863889" name="Чугуев" />
  </region>
  <region name="Херсонская область">
    <city lat="46.843822" lon="33.4375" name="Берислав" />
    <city lat="46.171638" lon="34.80777" name="Геническ" />
    <city lat="46.5166667" lon="32.5166667" name="Голая Пристань" />
    <city lat="46.817388" lon="33.494325" name="Каховка" />
    <city lat="46.7666667" lon="33.3666667" name="Новая Каховка" />
    <city lat="46.116871" lon="32.913731" name="Скадовск" />
    <city lat="46.7528018" lon="33.4216856" name="Таврийск" />
    <city lat="46.653368" lon="32.629424" name="Херсон" />
    <city lat="46.62" lon="32.72" name="Цюрупинск" />
  </region>
  <region name="Хмельницкая область">
    <city lat="49.535179" lon="26.22331" name="Волочиск" />
    <city lat="49.1666667" lon="26.5666667" name="Городок" />
    <city lat="49.267071" lon="27.440269" name="Деражня" />
    <city lat="48.8909743" lon="26.8546608" name="Дунаевцы" />
    <city lat="50.119221" lon="26.82629" name="Изяслав" />
    <city lat="48.6833333" lon="26.5833333" name="Каменец-Подольский" />
    <city lat="49.6519444" lon="26.9705556" name="Красилов" />
    <city lat="50.3374232" lon="26.6404529" name="Нетешин" />
    <city lat="50.122269" lon="27.511909" name="Полонное" />
    <city lat="49.0563905" lon="27.3944506" name="Славута" />
    <city lat="49.7555556" lon="27.2208333" name="Староконстантинов" />
    <city lat="49.4166667" lon="27.0" name="Хмельницкий" />
    <city lat="50.179131" lon="27.07732" name="Шепетовка" />
  </region>
  <region name="Черкасская область">
    <city lat="49.0166667" lon="31.0666667" name="Ватутино" />
    <city lat="49.290649" lon="31.443199" name="Городище" />
    <city lat="49.245522" lon="30.11998" name="Жашков" />
    <city lat="49.075489" lon="30.967911" name="Звенигородка" />
    <city lat="49.674271" lon="32.040421" name="Золотоноша" />
    <city lat="49.036347" lon="32.103481" name="Каменка" />
    <city lat="49.75" lon="31.4666667" name="Канев" />
    <city lat="49.421051" lon="31.268993" name="Корсунь-Шевченковский" />
    <city lat="48.9909154" lon="29.8051363" name="Монастырище" />
    <city lat="49.224621" lon="31.878401" name="Смела" />
    <city lat="48.8833333" lon="30.7" name="Тальное" />
    <city lat="48.75" lon="30.2166667" name="Умань" />
    <city lat="48.8494444" lon="29.97" name="Христиновка" />
    <city lat="49.4333333" lon="32.0666667" name="Черкассы" />
    <city lat="49.072498" lon="32.683578" name="Чигирин" />
    <city lat="49.00349" lon="31.385559" name="Шпола" />
  </region>
  <region name="Черниговская область">
    <city lat="51.1830556" lon="32.8297222" name="Бахмач" />
    <city lat="50.745" lon="31.3869444" name="Бобровица" />
    <city lat="51.249451" lon="32.43034" name="Борзна" />
    <city lat="51.8905556" lon="31.5936111" name="Городня" />
    <city lat="50.9246667" lon="30.756" name="Десна" />
    <city lat="50.863918" lon="32.39307" name="Ичня" />
    <city lat="51.7754831" lon="32.2595792" name="Корюковка" />
    <city lat="51.521759" lon="32.21888" name="Мена" />
    <city lat="51.0380556" lon="31.8861111" name="Нежин" />
    <city lat="52.0069896" lon="33.2537069" name="Новгород-Северский" />
    <city lat="50.9333333" lon="31.5833333" name="Носовка" />
    <city lat="50.594181" lon="32.38689" name="Прилуки" />
    <city lat="51.6463023" lon="31.5616846" name="Седнев" />
    <city lat="52.173561" lon="32.587059" name="Семёновка" />
    <city lat="51.503653" lon="31.293167" name="Чернигов" />
    <city lat="51.819321" lon="31.94846" name="Щорс" />
  </region>
  <region name="Черновицкая область">
    <city lat="48.38" lon="25.51" name="Вашковцы" />
    <city lat="48.25" lon="25.1916667" name="Вижница" />
    <city lat="48.1485764" lon="26.2572996" name="Герца" />
    <city lat="48.5166667" lon="25.85" name="Заставна" />
    <city lat="48.4425" lon="25.7613889" name="Кицмань" />
    <city lat="48.5833333" lon="27.4333333" name="Новоднестровск" />
    <city lat="48.2166667" lon="26.2666667" name="Новоселица" />
    <city lat="48.45" lon="27.4166667" name="Сокиряны" />
    <city lat="48.1666667" lon="25.7166667" name="Сторожинец" />
    <city lat="48.5" lon="26.5" name="Хотин" />
    <city lat="48.3" lon="25.9333333" name="Черновцы" />
  </region>
</regions>
